{
  "city": "Mangalore / Mangaluru",
  "city_id": "mangalore",
  "type": "special_store",
  "version": "v4",
  "description": "18-domain Mangalore-specific intelligence with deep schema per document spec. Stored separately from main data hub.",
  "generated_at": "2026-03-11T17:40:02.021892+00:00",
  "sources": [
    "Wikipedia REST API (CC BY-SA 3.0)",
    "Wikidata SPARQL (CC0)",
    "OSM Overpass API (ODbL)",
    "GBIF Occurrence API (CC0 / CC BY)",
    "Open-Meteo Climate API (CC BY 4.0)",
    "Hand-compiled curated research"
  ],
  "tulu_culture": {
    "domain": "tulu_culture",
    "wiki_summaries": {
      "Tulu_Nadu": "Tulu Nadu, or Tulunad, is a region and a proposed state on the southwestern coast of India. The region is predominantly inhabited by the Tulu people, also known as Tuluva, who speak Tulu, a Dravidian language. The former district encompassed the territories of the contemporary Dakshina Kannada (Kudla) and Udupi (Odipu) of Karnataka State, and Kasaragod district (Kasrod) of Kerala state. These areas collectively form the cultural region of the Tuluver.",
      "Yakshagana": "Yakshagana is a traditional stage performance and semi classical Indian dance drama, found in Tulunadu that is Dakshina Kannada, Udupi, Kasaragod district and Uttara Kannada, Shimoga and western parts of Chikmagalur districts, in the state of Karnataka and in Kasaragod district in Kerala that combines dance, music, dialogue, costume, make-up, and stage techniques with a unique style and form. It is believed to have evolved from proto-classical music and Sanskrit theatre during the period of the ",
      "Bhuta_Kola": "Būta Kōlā, also referred to as Bhūta Kolam, Daiva Kōlā or Daiva Nēmā, is a Hindu folk dance performance practised, believed and protected by the Tuluvas of Tulu Nadu and parts of Malenadu of Karnataka and Kasargod in northern Kerala, India. The dance is highly stylised and performed as part of \"Bhootaradhane\" or \"Bhootharadhanam\" or worship of the local deities of the Tulu-speaking population in South India. It has influenced Yakshagana folk theatre. Būta kōlā is closely related to Theyyam of No",
      "Tulu_language": "The Tulu language is a Dravidian language whose speakers are concentrated in Dakshina Kannada and in the southern part of Udupi of Karnataka in south-western India and also in the northern parts of the Kasaragod district of Kerala. The native speakers of Tulu are referred to as Tuluva or Tulu people and the geographical area is unofficially called Tulu Nadu.",
      "Nagamandala": "Nagamandala is a 1997 Indian Kannada-language drama film, directed by T. S. Nagabharana and written by Girish Karnad. Produced by Srihari L. Khoday with music by C. Aswath, It is an adaptation of a 1988 play by Karnad with the same name which is based on a local folk tale and ritual. It stars Prakash Raj and Vijayalakshmi in the lead roles. The film depicts a romantic plot between a woman and a snake in the disguise of her uncaring husband.",
      "Pili_Vesha": "Pilivēṣa in \"Tiger Masque\" is a folk dance unique in coastal Karnataka, India. Pilivēṣa is performed during Navratri to honour the Goddess Durga, whose favoured animal is the tiger (mārnemi). Mangalore Dasara is one of the festivals during which a large number of enthusiasts participate. It originated in Udupi District of Karnataka and was initially performed during the Krishna Janmashtami/Mosarukudike and Ganesha Chaturthi at Mangalore, Udupi, Moodabidri, Kundapur and many other places in Tulu ",
      "Udupi_cuisine": "Udupi cuisine is a cuisine of South India. It forms an important part of Tuluva cuisine and takes its name from Udupi, a city on the southwest coast of India in the Tulunad region of the state of Karnataka."
    },
    "wikidata_art_forms": [],
    "osm_cultural_centers": [
      {
        "name": "Kodikal Open-air Theatre",
        "lat": 12.9074397,
        "lon": 74.8300003,
        "type": "theatre",
        "religion": "",
        "denomination": "",
        "phone": "",
        "website": "",
        "hours": "",
        "source": "osm"
      },
      {
        "name": "Sri Vishnu Vitoba Bajana Mandir (Andachtsstätte)",
        "lat": 12.8816233,
        "lon": 74.8180771,
        "type": "memorial",
        "religion": "",
        "denomination": "",
        "phone": "",
        "website": "",
        "hours": "",
        "source": "osm"
      },
      {
        "name": "Statue of U. S. Mallya",
        "lat": 13.0108016,
        "lon": 74.7931615,
        "type": "memorial",
        "religion": "",
        "denomination": "",
        "phone": "",
        "website": "",
        "hours": "",
        "source": "osm"
      },
      {
        "name": "Kulala Sudharaka Sanga",
        "lat": 12.8704874,
        "lon": 74.9711564,
        "type": "community_centre",
        "religion": "",
        "denomination": "",
        "phone": "",
        "website": "",
        "hours": "",
        "source": "osm"
      },
      {
        "name": "Bhremer Sana",
        "lat": 12.8529251,
        "lon": 74.8716201,
        "type": "monument",
        "religion": "",
        "denomination": "",
        "phone": "",
        "website": "",
        "hours": "",
        "source": "osm"
      },
      {
        "name": "Sumangala Kalyana Mantapa",
        "lat": 12.8729014,
        "lon": 75.0471421,
        "type": "community_centre",
        "religion": "",
        "denomination": "",
        "phone": "",
        "website": "",
        "hours": "",
        "source": "osm"
      },
      {
        "name": "Prasad Art Gallery",
        "lat": 12.8823463,
        "lon": 74.8393308,
        "type": "arts_centre",
        "religion": "",
        "denomination": "",
        "phone": "",
        "website": "",
        "hours": "",
        "source": "osm"
      },
      {
        "name": "Ramanugraha Sabha Bhavana",
        "lat": 13.0425596,
        "lon": 74.7955817,
        "type": "community_centre",
        "religion": "",
        "denomination": "",
        "phone": "",
        "website": "",
        "hours": "",
        "source": "osm"
      },
      {
        "name": "Mjm Hall",
        "lat": 12.9956471,
        "lon": 74.8103661,
        "type": "community_centre",
        "religion": "",
        "denomination": "",
        "phone": "",
        "website": "",
        "hours": "",
        "source": "osm"
      },
      {
        "name": "Maha Ganapathi Community Hall",
        "lat": 12.9944185,
        "lon": 74.8345222,
        "type": "community_centre",
        "religion": "",
        "denomination": "",
        "phone": "",
        "website": "",
        "hours": "",
        "source": "osm"
      },
      {
        "name": "Frad Saib Hall",
        "lat": 12.8847832,
        "lon": 74.8828075,
        "type": "community_centre",
        "religion": "",
        "denomination": "",
        "phone": "",
        "website": "",
        "hours": "",
        "source": "osm"
      },
      {
        "name": "Cordel Hall",
        "lat": 12.8838796,
        "lon": 74.8817162,
        "type": "community_centre",
        "religion": "",
        "denomination": "",
        "phone": "",
        "website": "",
        "hours": "",
        "source": "osm"
      },
      {
        "name": "Sri Ravichandran Sabha Bhavana",
        "lat": 12.923293,
        "lon": 74.8422236,
        "type": "community_centre",
        "religion": "",
        "denomination": "",
        "phone": "",
        "website": "",
        "hours": "",
        "source": "osm"
      },
      {
        "name": "Bejai Church Hall",
        "lat": 12.8840049,
        "lon": 74.846583,
        "type": "community_centre",
        "religion": "",
        "denomination": "",
        "phone": "",
        "website": "",
        "hours": "",
        "source": "osm"
      },
      {
        "name": "Girls Common Room",
        "lat": 13.011643,
        "lon": 74.7943061,
        "type": "community_centre",
        "religion": "",
        "denomination": "",
        "phone": "",
        "website": "",
        "hours": "",
        "source": "osm"
      }
    ],
    "key_traditions": [
      {
        "name": "Yakshagana",
        "type": "Dance Drama",
        "season": "Nov–May",
        "venues": [
          "Ravindra Kala Bhavana",
          "Idagunji Mahaganapathi",
          "Kateel"
        ],
        "description": "All-night Tulu theatrical form, mythological narratives, elaborate costumes. Unique to coastal Karnataka.",
        "subcategory": "Cultural Performance"
      },
      {
        "name": "Kambala",
        "type": "Buffalo Race",
        "season": "Nov–Mar",
        "active_grounds": [
          "Konaje",
          "Pilikula",
          "Moodbidri",
          "Bantwal"
        ],
        "description": "Traditional paddy-field buffalo racing, Tulu Nadu heritage sport. Electrifying atmosphere, very local audience.",
        "subcategory": "Traditional Sport"
      },
      {
        "name": "Bhuta Kola",
        "type": "Spirit Propitiation Ritual",
        "season": "Oct–May",
        "description": "Tulu spirit/deity ritual performed in private homes and community temples. Ritual dancer channels deity, gives blessings and judgments.",
        "subcategory": "Ritual"
      },
      {
        "name": "Nagamandala",
        "type": "Serpent Deity Worship",
        "season": "Night ceremony",
        "description": "All-night Naga (serpent) deity worship, intricate sand floor drawings, fire rituals. Performed in naga-katte (serpent groves).",
        "subcategory": "Ritual"
      },
      {
        "name": "Pili Vesha",
        "type": "Tiger Dance",
        "season": "Sep–Oct (Navaratri)",
        "description": "Men body-painted as tigers, rhythmic street processions during Navaratri. Unique to Dakshina Kannada.",
        "subcategory": "Street Performance"
      },
      {
        "name": "Paddana",
        "type": "Oral Epic Poetry",
        "season": "Year-round",
        "description": "Tulu oral epic tradition sung by Billava community. Long narrative poems about deities and heroes. Endangered — few practitioners.",
        "subcategory": "Oral Tradition"
      },
      {
        "name": "Siri Jatre",
        "type": "Women's Folk Ritual Fair",
        "season": "Annual",
        "description": "Siri deity worship, a women-centric Tulu ritual tradition. Involves possession, community participation, healing.",
        "subcategory": "Folk Ritual"
      },
      {
        "name": "Kolyata",
        "type": "Stick Dance",
        "season": "Temple festivals",
        "description": "Traditional stick dance performed at Tulu temples during festivals — circular formation, rhythmic coordination.",
        "subcategory": "Dance Form"
      }
    ],
    "ritual_sites": [
      {
        "name": "Kadri Naga Shrine",
        "lat": 12.8979,
        "lon": 74.8505,
        "type": "Serpent Grove (Naga Katte)",
        "notes": "Ancient sacred serpent shrine within Kadri Manjunath temple complex"
      },
      {
        "name": "Ullal Somanath Shrine",
        "lat": 12.805,
        "lon": 74.84,
        "type": "Bhuta Shrine",
        "notes": "Active Bhuta Kola site, Ullal area"
      },
      {
        "name": "Tannirbhavi Spirit Shrine",
        "lat": 12.93,
        "lon": 74.785,
        "type": "Coastal Spirit Shrine",
        "notes": "Small shrine on Tannirbhavi beach — local fishermen's worship"
      },
      {
        "name": "Kateel Durgaparameshwari",
        "lat": 13.024,
        "lon": 75.031,
        "type": "Shakti Temple / Island Temple",
        "notes": "Island temple on Nandini river — extremely powerful Shakti deity, pilgrimage site"
      },
      {
        "name": "Kudroli Gokarnath Yaksha Stage",
        "lat": 12.88,
        "lon": 74.84,
        "type": "Yakshagana Venue",
        "notes": "Regular Yakshagana performances, Dasara special shows"
      }
    ],
    "bhuta_kola_season_months": [
      "October",
      "November",
      "December",
      "January",
      "February",
      "March",
      "April",
      "May"
    ],
    "yakshagana_season_months": [
      "November",
      "December",
      "January",
      "February",
      "March",
      "April",
      "May"
    ],
    "kambala_season_months": [
      "November",
      "December",
      "January",
      "February",
      "March"
    ],
    "community_temple_types": [
      "Brahmi Durgaparameshwari",
      "Jarandaya (Garuda deity)",
      "Pilichandi (guardian deity)",
      "Naga (serpent)",
      "Jumadi",
      "Ullaya"
    ],
    "yakshagana_centers": [
      {
        "name": "Ravindra Kala Bhavana",
        "lat": 12.8709,
        "lon": 74.8428,
        "notes": "Main city auditorium, frequent shows Nov–May"
      },
      {
        "name": "Idagunji Mahaganapathi Yakshagana Kendra",
        "lat": 14.0,
        "lon": 74.55,
        "notes": "Famous training centre 100km north, many troupes originate here"
      },
      {
        "name": "Kateel Temple Stage",
        "lat": 13.024,
        "lon": 75.031,
        "notes": "Annual Yakshagana during Brahmotsava"
      },
      {
        "name": "Kudroli Gokarnath Stage",
        "lat": 12.88,
        "lon": 74.84,
        "notes": "City centre, Dasara special performances"
      },
      {
        "name": "Dharmasthala Temple Grounds",
        "lat": 12.956,
        "lon": 75.385,
        "notes": "Major annual Yakshagana competitions held here"
      }
    ],
    "tulu_speaking_zones": [
      {
        "zone": "Attavar",
        "dominant_language": "Tulu",
        "community": "Billava, mixed"
      },
      {
        "zone": "Kankanady",
        "dominant_language": "Tulu",
        "community": "Tulu / Bunt"
      },
      {
        "zone": "Kadri",
        "dominant_language": "Tulu / Kannada",
        "community": "Mixed"
      },
      {
        "zone": "Surathkal (north)",
        "dominant_language": "Tulu",
        "community": "Fishing + industrial"
      },
      {
        "zone": "Ullal (south)",
        "dominant_language": "Tulu / Beary Bashe",
        "community": "Mogaveera, Beary"
      },
      {
        "zone": "Deralakatte (east)",
        "dominant_language": "Tulu / Kannada",
        "community": "Student-dense, mixed"
      }
    ],
    "bhuta_spirits_roster": [
      {
        "spirit": "Jumadi",
        "character": "Warrior deity, protective",
        "worshipped_by": "Billava community"
      },
      {
        "spirit": "Pilichandi",
        "character": "Tiger deity, guardian",
        "worshipped_by": "Coastal communities"
      },
      {
        "spirit": "Panjurli",
        "character": "Boar deity, prosperity",
        "worshipped_by": "Agricultural communities"
      },
      {
        "spirit": "Ullaya",
        "character": "Sea deity, fishermen's protector",
        "worshipped_by": "Mogaveera community"
      },
      {
        "spirit": "Jarandaya",
        "character": "Garuda (eagle) deity",
        "worshipped_by": "Various Tulu communities"
      },
      {
        "spirit": "Brahmi Durgaparameshwari",
        "character": "Shakti deity, most powerful",
        "worshipped_by": "Cross-community worship"
      }
    ]
  },
  "coastal_economy": {
    "domain": "coastal_economy",
    "wiki_summaries": {
      "New_Mangalore_Port": "New Mangalore Port or New Mangalore Port Authority (NMPA) is an all-weather port at Panambur, Mangalore in Karnataka state in India. The total land area of the port is approximately 480 hectares (1,200 acres). The New Mangalore Port is the deepest inner harbour on the west coast. It is the only major port of Karnataka and the seventh largest port in India. It is operated by New Mangalore Port Authority (NMPA).",
      "Mogaveera": "Mogaveera is a fishermen community in the Tulunad region of South West India. They dominated the maritime business of the region. Mogaveera people form a community who dominate fishing and marine activities in and around Mangalore and Udupi. The word \"Mogaveera\" is believed to be derived from the words \"Moga\" (brave) and \"Veera\" (warrior), indicating their origins as courageous coastal warriors and sea navigators. Fishing has been the main occupation of the Mogaveeras for centuries. They have de",
      "Malabar_Coast": "The Malabar Coast is the southwestern region of the Indian subcontinent. It generally refers to the western coastline of India stretching from Konkan to Kanyakumari. Geographically, it comprises one of the wettest regions of the subcontinent, which includes the southern tip of Goa, Kanara region of Karnataka, all of Kerala and Kanyakumari region of Tamil Nadu."
    },
    "osm_harbor_zones": [
      {
        "name": "Urwa Market",
        "lat": 12.889046,
        "lon": 74.8298446,
        "type": "marketplace",
        "religion": "",
        "denomination": "",
        "phone": "",
        "website": "",
        "hours": "",
        "source": "osm"
      },
      {
        "name": "Urwa Fish Market",
        "lat": 12.8888822,
        "lon": 74.8298881,
        "type": "seafood",
        "religion": "",
        "denomination": "",
        "phone": "",
        "website": "",
        "hours": "",
        "source": "osm"
      },
      {
        "name": "Dubai Market",
        "lat": 12.8620358,
        "lon": 74.8460159,
        "type": "marketplace",
        "religion": "",
        "denomination": "",
        "phone": "",
        "website": "",
        "hours": "",
        "source": "osm"
      },
      {
        "name": "Port Town Market",
        "lat": 12.9438586,
        "lon": 74.8161404,
        "type": "marketplace",
        "religion": "",
        "denomination": "",
        "phone": "",
        "website": "",
        "hours": "",
        "source": "osm"
      }
    ],
    "fish_market_peaks": {
      "primary_market": "Hoige Bazaar Fish Market",
      "morning_peak": "4:30am–8:00am",
      "secondary_peak": "4:00pm–6:00pm",
      "seasonal_peak_months": [
        "June",
        "July",
        "August",
        "September"
      ],
      "lean_months": [
        "April",
        "May"
      ],
      "fish_ban_period": "June 1 – July 31 (Karnataka coast — trawling ban)"
    },
    "boat_types": [
      {
        "type": "Trawler",
        "use": "Deep sea fishing, 15–40km offshore",
        "home_port": "Hoige Bazaar / Bunder"
      },
      {
        "type": "Catamaran (traditional)",
        "use": "Inshore fishing, beach launch",
        "home_port": "Panambur, Ullal, Tannirbhavi"
      },
      {
        "type": "FRP Boat (fiber reinforced plastic)",
        "use": "Mechanized inshore fishing",
        "home_port": "Bunder Jetty"
      },
      {
        "type": "Country Boat (Tonee)",
        "use": "Estuary, river, ferry crossing",
        "home_port": "Gurupur Ferry, Bengre"
      },
      {
        "type": "Cargo Vessel",
        "use": "New Mangalore Port — container, bulk cargo",
        "home_port": "New Mangalore Port (Panambur)"
      }
    ],
    "fish_auction_system": {
      "type": "Dutch auction (price starts high, falls until buyer bids)",
      "timing": "Fish arrive 4–5am, auction begins 5–6am",
      "buyers": "Wholesale merchants, hotel buyers, retail vendors",
      "cooperative": "Karnataka Rajya Matsyodhyoga Sahakara Mahasangh (KRMSM)"
    },
    "seasonal_fish_calendar": {
      "May–June": [
        "Pomfret (Vambu)",
        "Seer fish (Neymeen)"
      ],
      "July–September": [
        "Lady fish (Kane)",
        "Mackerel (Bangude)"
      ],
      "October–November": [
        "Prawns (Sungata)",
        "Crab (Ponju)"
      ],
      "December–February": [
        "Tuna",
        "Shark",
        "Lobster"
      ],
      "March–April": [
        "Kingfish",
        "Barracuda"
      ]
    },
    "harbor_activity_index": 0.82,
    "port_cargo_types": [
      "Petroleum products (MRPL refinery)",
      "Fertilizers",
      "Coal",
      "Containers",
      "Cashew exports"
    ],
    "fishing_communities": [
      "Mogaveera",
      "Kharvi",
      "Bhoi",
      "Harikantha"
    ],
    "traditional_vs_modern_market": {
      "traditional": {
        "name": "Hoige Bazaar Fish Market",
        "character": "Open-air, cash transactions, haggling, 4am start",
        "scale": "Largest fish market in DK district",
        "access": "Walk-in public"
      },
      "modern": {
        "name": "Mangalore Fish Market (New)",
        "character": "Covered, hygienic, fixed-price counters",
        "scale": "Smaller volume, higher standards"
      }
    },
    "port_activity_zones": [
      {
        "zone": "New Mangalore Port (Panambur)",
        "type": "Major cargo port",
        "lat": 12.95,
        "lon": 74.81,
        "activity": "Petroleum, fertilizers, coal, containers",
        "throughput_mtpa": 45
      },
      {
        "zone": "Bunder Old Port",
        "type": "Historic fishing port",
        "lat": 12.87,
        "lon": 74.826,
        "activity": "Small fishing boats, local trade"
      },
      {
        "zone": "Hoige Bazaar Jetty",
        "type": "Fishing jetty",
        "lat": 12.871,
        "lon": 74.832,
        "activity": "Fish offloading, auction, wholesale"
      },
      {
        "zone": "Bengre Jetty",
        "type": "Ferry + fishing",
        "lat": 12.92,
        "lon": 74.795,
        "activity": "River ferry crossing, local fishing"
      }
    ]
  },
  "monsoon_behavior": {
    "domain": "monsoon_behavior",
    "heavy_rain_months": [
      "June",
      "July",
      "August"
    ],
    "moderate_rain_months": [
      "May",
      "September",
      "October"
    ],
    "dry_months": [
      "November",
      "December",
      "January",
      "February",
      "March"
    ],
    "monthly_rainfall_mm": {},
    "annual_rainfall_avg_mm": 3500,
    "monsoon_onset": "First week of June",
    "monsoon_withdrawal": "Mid October",
    "beach_closures": {
      "full_closure_months": [
        "June",
        "July",
        "August"
      ],
      "partial_restriction": [
        "May",
        "September"
      ],
      "reason": "Arabian Sea aggression, high waves, strong currents",
      "beach_risk_index": 0.85
    },
    "flood_prone_areas": [
      {
        "area": "Bunder / Old Port area",
        "risk": "High",
        "cause": "Low-lying, tidal + rain flooding"
      },
      {
        "area": "Pumpwell Circle area",
        "risk": "Medium",
        "cause": "Poor drainage, flash floods"
      },
      {
        "area": "Kavoor stream banks",
        "risk": "Medium",
        "cause": "Stream overflow during heavy rain"
      },
      {
        "area": "Kulur Bridge area",
        "risk": "High",
        "cause": "Netravati river backflow"
      },
      {
        "area": "Ullal coastal zone",
        "risk": "High",
        "cause": "Storm surge, coastal erosion"
      },
      {
        "area": "Padil area outskirts",
        "risk": "Medium",
        "cause": "Low-lying paddy fields"
      }
    ],
    "landslide_prone_zones": [
      {
        "area": "Shirva–Brahmagiri hills (40km NE)",
        "risk": "High"
      },
      {
        "area": "Bantwal Ghat section",
        "risk": "High"
      },
      {
        "area": "Kadaba region",
        "risk": "Medium"
      }
    ],
    "sea_current_severity": {
      "June": "Very High — red flag",
      "July": "Very High — red flag",
      "August": "High — orange flag",
      "September": "Medium",
      "October–May": "Normal"
    },
    "waterlogging_hotspots": [
      "Pumpwell",
      "Bunder",
      "Attavar",
      "Barke",
      "Kadri"
    ],
    "air_quality_live": {
      "time": "2026-03-11T17:00",
      "interval": 3600,
      "us_aqi": 104,
      "pm2_5": 38.4,
      "pm10": 44.9
    },
    "beach_risk_index": 0.85,
    "climate_notes": "Mangalore receives one of the highest rainfalls in India during Jun-Aug. Annual average ~3500mm. The city shuts down outdoor tourism for the monsoon core months.",
    "osm_coastal_features": [],
    "monthly_temperature_c": {
      "Jan": 26,
      "Feb": 27,
      "Mar": 29,
      "Apr": 31,
      "May": 31,
      "Jun": 27,
      "Jul": 26,
      "Aug": 26,
      "Sep": 27,
      "Oct": 28,
      "Nov": 27,
      "Dec": 26
    },
    "humidity_index": {
      "peak_months": [
        "June",
        "July",
        "August"
      ],
      "avg_humidity_pct_monsoon": 87,
      "avg_humidity_pct_winter": 68
    },
    "visitor_advisory": {
      "best_months": [
        "November",
        "December",
        "January",
        "February"
      ],
      "avoid_months": [
        "June",
        "July",
        "August"
      ],
      "caution_months": [
        "May",
        "September",
        "October"
      ]
    }
  },
  "temple_architecture": {
    "domain": "temple_architecture",
    "wiki_summaries": {
      "Kerala_architecture": "Kerala architecture is a style of architecture found in the Indian state of Kerala, and in parts of the Tulu Nadu region of Karnataka. Kerala's architectural style includes a unique religious sanctuary architecture that emerged in southwestern India, and varies slightly from the Dravidian architecture observed in other parts of southern India. The architecture of Kerala is derived from the Indian Vedic architectural tradition and forms a part of Dravidian architecture, one of the three styles of",
      "Dravidian_architecture": "Dravidian architecture, or the Southern Indian temple style, is an architectural idiom in Hindu temple architecture that emerged from Southern India, reaching its final form by the sixteenth century.",
      "Hoysala_architecture": "Hoysala architecture is the building style in Hindu temple architecture developed under the rule of the Hoysala Empire between the 11th and 14th centuries, in the region known today as Karnataka, a state of India. Hoysala influence was at its peak in the 13th century, when it dominated the Southern Deccan Plateau region. Large and small temples built during this era remain as examples of the Hoysala architectural style, including the Chennakesava Temple at Belur, the Hoysaleswara Temple at Haleb"
    },
    "osm_religious_structures": [
      {
        "name": "Shri Mahalingeshwara Temple",
        "lat": 13.0355937,
        "lon": 74.7954467,
        "type": "place_of_worship",
        "religion": "hindu",
        "denomination": "",
        "phone": "",
        "website": "",
        "hours": "",
        "source": "osm"
      },
      {
        "name": "Kalikamba Temple",
        "lat": 12.8701364,
        "lon": 74.8348177,
        "type": "place_of_worship",
        "religion": "hindu",
        "denomination": "",
        "phone": "",
        "website": "",
        "hours": "",
        "source": "osm"
      },
      {
        "name": "Shri Mahaganapathi Temple, Urwa/Kottara",
        "lat": 12.902033,
        "lon": 74.8368503,
        "type": "place_of_worship",
        "religion": "hindu",
        "denomination": "",
        "phone": "",
        "website": "",
        "hours": "",
        "source": "osm"
      },
      {
        "name": "Kuruamba Temple, Kodikal",
        "lat": 12.9094283,
        "lon": 74.8317994,
        "type": "place_of_worship",
        "religion": "hindu",
        "denomination": "",
        "phone": "",
        "website": "",
        "hours": "",
        "source": "osm"
      },
      {
        "name": "Koteda Babbu Temple",
        "lat": 12.8805723,
        "lon": 74.854641,
        "type": "place_of_worship",
        "religion": "hindu",
        "denomination": "",
        "phone": "",
        "website": "",
        "hours": "",
        "source": "osm"
      },
      {
        "name": "Shri Jnanashakthi Subrahmanyaswami Temple, Nagavruja Kshetra Pavanje",
        "lat": 13.0363325,
        "lon": 74.794573,
        "type": "place_of_worship",
        "religion": "hindu",
        "denomination": "hindu",
        "phone": "+918242283393",
        "website": "https://jnanashakthinagavruja.in/",
        "hours": "05:00-20:00",
        "source": "osm"
      },
      {
        "name": "Sri Cheerumbha Bhagavathi Temple",
        "lat": 12.8201341,
        "lon": 74.8431692,
        "type": "place_of_worship",
        "religion": "hindu",
        "denomination": "",
        "phone": "",
        "website": "",
        "hours": "",
        "source": "osm"
      },
      {
        "name": "Shree Sathyadharma Devi Temple",
        "lat": 13.0204602,
        "lon": 74.7911264,
        "type": "place_of_worship",
        "religion": "hindu",
        "denomination": "hindu",
        "phone": "",
        "website": "",
        "hours": "",
        "source": "osm"
      },
      {
        "name": "Pandeshwar Temple",
        "lat": 12.85684,
        "lon": 74.8379984,
        "type": "place_of_worship",
        "religion": "hindu",
        "denomination": "",
        "phone": "",
        "website": "",
        "hours": "",
        "source": "osm"
      },
      {
        "name": "Umamaheshwari temple",
        "lat": 12.8589158,
        "lon": 74.8486098,
        "type": "place_of_worship",
        "religion": "hindu",
        "denomination": "",
        "phone": "",
        "website": "",
        "hours": "",
        "source": "osm"
      },
      {
        "name": "Shri Anjaneya Temple, Kudroli",
        "lat": 12.8761961,
        "lon": 74.8318594,
        "type": "place_of_worship",
        "religion": "hindu",
        "denomination": "",
        "phone": "",
        "website": "",
        "hours": "",
        "source": "osm"
      },
      {
        "name": "Shri Rajarajeshwari Temple",
        "lat": 12.9340913,
        "lon": 74.9553145,
        "type": "place_of_worship",
        "religion": "hindu",
        "denomination": "",
        "phone": "",
        "website": "",
        "hours": "",
        "source": "osm"
      },
      {
        "name": "Nagakannika Durga Parameshwari Temple",
        "lat": 12.9046269,
        "lon": 74.8522939,
        "type": "place_of_worship",
        "religion": "hindu",
        "denomination": "",
        "phone": "",
        "website": "",
        "hours": "",
        "source": "osm"
      },
      {
        "name": "Chamundeshwari Temple",
        "lat": 12.8569946,
        "lon": 74.8678741,
        "type": "place_of_worship",
        "religion": "hindu",
        "denomination": "",
        "phone": "",
        "website": "",
        "hours": "",
        "source": "osm"
      },
      {
        "name": "Benkinatheshwara Temple",
        "lat": 12.9807491,
        "lon": 74.8501587,
        "type": "place_of_worship",
        "religion": "hindu",
        "denomination": "",
        "phone": "",
        "website": "",
        "hours": "",
        "source": "osm"
      },
      {
        "name": "Hanuman Temple",
        "lat": 12.9789352,
        "lon": 74.8022995,
        "type": "place_of_worship",
        "religion": "hindu",
        "denomination": "",
        "phone": "",
        "website": "",
        "hours": "",
        "source": "osm"
      },
      {
        "name": "Krishna Bajana Mandira",
        "lat": 12.9566298,
        "lon": 74.801918,
        "type": "place_of_worship",
        "religion": "hindu",
        "denomination": "",
        "phone": "",
        "website": "",
        "hours": "",
        "source": "osm"
      },
      {
        "name": "Shri Babbu Swamy Temple",
        "lat": 12.9045588,
        "lon": 74.8137566,
        "type": "place_of_worship",
        "religion": "hindu",
        "denomination": "",
        "phone": "",
        "website": "",
        "hours": "",
        "source": "osm"
      },
      {
        "name": "Pejawar Mutt",
        "lat": 12.9631901,
        "lon": 74.8269882,
        "type": "place_of_worship",
        "religion": "hindu",
        "denomination": "",
        "phone": "",
        "website": "",
        "hours": "",
        "source": "osm"
      },
      {
        "name": "Sri Vitobha Bajana Mandir, Haleangadi",
        "lat": 13.0440426,
        "lon": 74.7966232,
        "type": "place_of_worship",
        "religion": "hindu",
        "denomination": "",
        "phone": "",
        "website": "",
        "hours": "",
        "source": "osm"
      },
      {
        "name": "Old Sri Krishna Bajana Mandir Temple",
        "lat": 13.0398064,
        "lon": 74.7907944,
        "type": "place_of_worship",
        "religion": "hindu",
        "denomination": "",
        "phone": "",
        "website": "",
        "hours": "",
        "source": "osm"
      },
      {
        "name": "Krishna Mandir",
        "lat": 13.0438194,
        "lon": 74.7898178,
        "type": "place_of_worship",
        "religion": "hindu",
        "denomination": "",
        "phone": "",
        "website": "",
        "hours": "",
        "source": "osm"
      },
      {
        "name": "Nagabrahma Rakteshwari Temple",
        "lat": 13.0463218,
        "lon": 74.7875457,
        "type": "place_of_worship",
        "religion": "hindu",
        "denomination": "",
        "phone": "",
        "website": "",
        "hours": "",
        "source": "osm"
      },
      {
        "name": "Koddhapu Jumadi Daiva Sthana Temple",
        "lat": 13.0457821,
        "lon": 74.7879486,
        "type": "place_of_worship",
        "religion": "hindu",
        "denomination": "",
        "phone": "",
        "website": "",
        "hours": "",
        "source": "osm"
      },
      {
        "name": "Shree Vitobha Rukmayi Kshetra & Brahmashree Narayana Guru Mandir",
        "lat": 12.98141,
        "lon": 74.7968979,
        "type": "place_of_worship",
        "religion": "hindu",
        "denomination": "",
        "phone": "",
        "website": "",
        "hours": "",
        "source": "osm"
      },
      {
        "name": "Idya Mahalingeshwara Temple",
        "lat": 12.9847593,
        "lon": 74.8011093,
        "type": "place_of_worship",
        "religion": "hindu",
        "denomination": "",
        "phone": "",
        "website": "",
        "hours": "",
        "source": "osm"
      },
      {
        "name": "Marikamba Temple",
        "lat": 12.8791562,
        "lon": 74.8691585,
        "type": "place_of_worship",
        "religion": "hindu",
        "denomination": "",
        "phone": "",
        "website": "",
        "hours": "",
        "source": "osm"
      },
      {
        "name": "Sri Rama Bhajana Mandira",
        "lat": 12.9226824,
        "lon": 74.8468776,
        "type": "place_of_worship",
        "religion": "hindu",
        "denomination": "hindu",
        "phone": "",
        "website": "",
        "hours": "",
        "source": "osm"
      },
      {
        "name": "Shri Krishna Giri Mandira",
        "lat": 12.8690008,
        "lon": 74.970345,
        "type": "place_of_worship",
        "religion": "hindu",
        "denomination": "",
        "phone": "",
        "website": "",
        "hours": "",
        "source": "osm"
      },
      {
        "name": "Ambikanagara Katte",
        "lat": 12.9239683,
        "lon": 74.8456244,
        "type": "place_of_worship",
        "religion": "hindu",
        "denomination": "hindu",
        "phone": "",
        "website": "",
        "hours": "",
        "source": "osm"
      },
      {
        "name": "Kod'dabbu Temple",
        "lat": 12.9968412,
        "lon": 74.8163284,
        "type": "place_of_worship",
        "religion": "hindu",
        "denomination": "",
        "phone": "",
        "website": "",
        "hours": "",
        "source": "osm"
      },
      {
        "name": "Swami Koragajja Sannidhi",
        "lat": 12.9970778,
        "lon": 74.8162967,
        "type": "place_of_worship",
        "religion": "hindu",
        "denomination": "",
        "phone": "",
        "website": "",
        "hours": "",
        "source": "osm"
      },
      {
        "name": "Adimayee Temple",
        "lat": 12.8489008,
        "lon": 74.869843,
        "type": "place_of_worship",
        "religion": "hindu",
        "denomination": "",
        "phone": "",
        "website": "",
        "hours": "",
        "source": "osm"
      },
      {
        "name": "Mahalingeshwara Temple",
        "lat": 12.8949474,
        "lon": 75.0414623,
        "type": "place_of_worship",
        "religion": "hindu",
        "denomination": "",
        "phone": "",
        "website": "",
        "hours": "",
        "source": "osm"
      },
      {
        "name": "Ganeshpura Temple",
        "lat": 13.001461,
        "lon": 74.8346178,
        "type": "place_of_worship",
        "religion": "hindu",
        "denomination": "",
        "phone": "",
        "website": "",
        "hours": "",
        "source": "osm"
      },
      {
        "name": "Shri GopalaKrishna Lakshmi Narasimha Temple",
        "lat": 12.9526559,
        "lon": 74.9789571,
        "type": "place_of_worship",
        "religion": "hindu",
        "denomination": "hindu",
        "phone": "",
        "website": "",
        "hours": "",
        "source": "osm"
      },
      {
        "name": "Shirdi Sai Baba Mandir",
        "lat": 12.8761477,
        "lon": 74.831747,
        "type": "place_of_worship",
        "religion": "hindu",
        "denomination": "",
        "phone": "",
        "website": "",
        "hours": "",
        "source": "osm"
      },
      {
        "name": "Shri Krishna Mandir",
        "lat": 12.875755,
        "lon": 74.8312966,
        "type": "place_of_worship",
        "religion": "hindu",
        "denomination": "",
        "phone": "",
        "website": "",
        "hours": "",
        "source": "osm"
      },
      {
        "name": "Shree Krishna Mutt",
        "lat": 12.8794217,
        "lon": 74.8335157,
        "type": "place_of_worship",
        "religion": "hindu",
        "denomination": "",
        "phone": "",
        "website": "",
        "hours": "",
        "source": "osm"
      },
      {
        "name": "Kordappu Sthana, Parari",
        "lat": 12.9258083,
        "lon": 74.9175055,
        "type": "place_of_worship",
        "religion": "hindu",
        "denomination": "",
        "phone": "",
        "website": "",
        "hours": "Mo-Su 09:00-21:00",
        "source": "osm"
      },
      {
        "name": "Aerebail Daivasthana",
        "lat": 12.9242214,
        "lon": 74.916902,
        "type": "place_of_worship",
        "religion": "hindu",
        "denomination": "",
        "phone": "08242262050",
        "website": "",
        "hours": "Mo-Su 09:00-21:00",
        "source": "osm"
      },
      {
        "name": "Sri Satyadevata Kallurti Temple",
        "lat": 12.8727118,
        "lon": 75.0473689,
        "type": "place_of_worship",
        "religion": "hindu",
        "denomination": "",
        "phone": "",
        "website": "",
        "hours": "",
        "source": "osm"
      },
      {
        "name": "Sri Veera Maruthi Temple",
        "lat": 12.8707412,
        "lon": 75.0409476,
        "type": "place_of_worship",
        "religion": "hindu",
        "denomination": "",
        "phone": "",
        "website": "",
        "hours": "",
        "source": "osm"
      },
      {
        "name": "Sri Vishnumurthy Temple, Panambur",
        "lat": 12.9390763,
        "lon": 74.8114955,
        "type": "place_of_worship",
        "religion": "hindu",
        "denomination": "",
        "phone": "",
        "website": "",
        "hours": "",
        "source": "osm"
      },
      {
        "name": "Shri vanadurga tatha jalantargata naga sanidyatemple",
        "lat": 12.8852957,
        "lon": 75.0212062,
        "type": "place_of_worship",
        "religion": "hindu",
        "denomination": "",
        "phone": "",
        "website": "",
        "hours": "",
        "source": "osm"
      },
      {
        "name": "Sultan Battery",
        "lat": 12.8895708,
        "lon": 74.8212527,
        "type": "archaeological_site",
        "religion": "",
        "denomination": "",
        "phone": "",
        "website": "",
        "hours": "",
        "source": "osm"
      },
      {
        "name": "Urwa Marigudi",
        "lat": 12.8910125,
        "lon": 74.8310833,
        "type": "place_of_worship",
        "religion": "hindu",
        "denomination": "",
        "phone": "",
        "website": "",
        "hours": "",
        "source": "osm"
      },
      {
        "name": "Kadri Manjunatha Temple",
        "lat": 12.8858906,
        "lon": 74.8553654,
        "type": "place_of_worship",
        "religion": "hindu",
        "denomination": "",
        "phone": "",
        "website": "",
        "hours": "",
        "source": "osm"
      },
      {
        "name": "Kavoor Mahalingeshwara Temple",
        "lat": 12.9184445,
        "lon": 74.8588391,
        "type": "place_of_worship",
        "religion": "hindu",
        "denomination": "",
        "phone": "",
        "website": "",
        "hours": "",
        "source": "osm"
      },
      {
        "name": "Sri Kshetra Durga Parameshwari Temple",
        "lat": 13.0437554,
        "lon": 74.8698911,
        "type": "place_of_worship",
        "religion": "hindu",
        "denomination": "",
        "phone": "",
        "website": "",
        "hours": "",
        "source": "osm"
      },
      {
        "name": "Shri Venkataramana Temple",
        "lat": 12.8701455,
        "lon": 74.8387692,
        "type": "place_of_worship",
        "religion": "hindu",
        "denomination": "",
        "phone": "",
        "website": "",
        "hours": "",
        "source": "osm"
      },
      {
        "name": "Vinayaka Shankara Narayana Durgamba Temple",
        "lat": 12.8704289,
        "lon": 75.036715,
        "type": "place_of_worship",
        "religion": "hindu",
        "denomination": "",
        "phone": "",
        "website": "",
        "hours": "",
        "source": "osm"
      },
      {
        "name": "Sadashiva Ganesha Temple",
        "lat": 13.0039712,
        "lon": 74.7904651,
        "type": "place_of_worship",
        "religion": "hindu",
        "denomination": "hindu",
        "phone": "",
        "website": "",
        "hours": "",
        "source": "osm"
      },
      {
        "name": "Shri Maha Ganapathi Temple",
        "lat": 12.9941757,
        "lon": 74.8345843,
        "type": "place_of_worship",
        "religion": "hindu",
        "denomination": "",
        "phone": "",
        "website": "",
        "hours": "",
        "source": "osm"
      },
      {
        "name": "Shri Mangaladevi Temple",
        "lat": 12.8492173,
        "lon": 74.8452884,
        "type": "place_of_worship",
        "religion": "hindu",
        "denomination": "",
        "phone": "",
        "website": "",
        "hours": "",
        "source": "osm"
      },
      {
        "name": "Sri Gokarnatheshwara Temple",
        "lat": 12.8758763,
        "lon": 74.8313831,
        "type": "place_of_worship",
        "religion": "hindu",
        "denomination": "",
        "phone": "",
        "website": "",
        "hours": "",
        "source": "osm"
      },
      {
        "name": "Sri Mahamaya Temple",
        "lat": 12.8709811,
        "lon": 74.8385292,
        "type": "place_of_worship",
        "religion": "hindu",
        "denomination": "",
        "phone": "",
        "website": "",
        "hours": "",
        "source": "osm"
      },
      {
        "name": "Kudupu Ananthapadmanabha Temple",
        "lat": 12.903932,
        "lon": 74.8937575,
        "type": "place_of_worship",
        "religion": "hindu",
        "denomination": "",
        "phone": "",
        "website": "",
        "hours": "",
        "source": "osm"
      },
      {
        "name": "Veeranarayana Temple",
        "lat": 12.8873529,
        "lon": 74.8847597,
        "type": "place_of_worship",
        "religion": "hindu",
        "denomination": "",
        "phone": "",
        "website": "",
        "hours": "",
        "source": "osm"
      },
      {
        "name": "Shri Jarandaya Temple",
        "lat": 12.8878528,
        "lon": 74.8240005,
        "type": "place_of_worship",
        "religion": "hindu",
        "denomination": "",
        "phone": "",
        "website": "",
        "hours": "",
        "source": "osm"
      },
      {
        "name": "Rama Shakti Mission",
        "lat": 12.8952382,
        "lon": 74.8741872,
        "type": "place_of_worship",
        "religion": "hindu",
        "denomination": "",
        "phone": "",
        "website": "",
        "hours": "",
        "source": "osm"
      },
      {
        "name": "Sri Ambika Annapoorneshwari Temple",
        "lat": 12.9791071,
        "lon": 74.9006001,
        "type": "place_of_worship",
        "religion": "hindu",
        "denomination": "",
        "phone": "",
        "website": "",
        "hours": "",
        "source": "osm"
      },
      {
        "name": "Shaaradwatha Yajnanagana",
        "lat": 13.0366112,
        "lon": 74.7948046,
        "type": "place_of_worship",
        "religion": "hindu",
        "denomination": "hindu",
        "phone": "",
        "website": "",
        "hours": "",
        "source": "osm"
      },
      {
        "name": "Thokur Jarandaya Daivasthana",
        "lat": 12.9647669,
        "lon": 74.8334599,
        "type": "place_of_worship",
        "religion": "hindu",
        "denomination": "",
        "phone": "",
        "website": "",
        "hours": "",
        "source": "osm"
      },
      {
        "name": "Naga Bramha Sannidhi",
        "lat": 12.9126278,
        "lon": 74.8258716,
        "type": "place_of_worship",
        "religion": "hindu",
        "denomination": "",
        "phone": "",
        "website": "",
        "hours": "",
        "source": "osm"
      },
      {
        "name": "Jain Temple",
        "lat": 12.8786517,
        "lon": 74.9476805,
        "type": "place_of_worship",
        "religion": "hindu",
        "denomination": "",
        "phone": "",
        "website": "",
        "hours": "",
        "source": "osm"
      },
      {
        "name": "Someshwara Temple",
        "lat": 12.7953729,
        "lon": 74.8480207,
        "type": "place_of_worship",
        "religion": "hindu",
        "denomination": "",
        "phone": "",
        "website": "",
        "hours": "",
        "source": "osm"
      },
      {
        "name": "Shree Krishna Bhajana Mandira",
        "lat": 12.9956908,
        "lon": 74.8116002,
        "type": "place_of_worship",
        "religion": "hindu",
        "denomination": "",
        "phone": "",
        "website": "",
        "hours": "",
        "source": "osm"
      },
      {
        "name": "Temple",
        "lat": 12.997244,
        "lon": 74.8352454,
        "type": "place_of_worship",
        "religion": "hindu",
        "denomination": "",
        "phone": "",
        "website": "",
        "hours": "",
        "source": "osm"
      },
      {
        "name": "Nithyananda Bhajana Mandira",
        "lat": 12.9973456,
        "lon": 74.834746,
        "type": "place_of_worship",
        "religion": "hindu",
        "denomination": "",
        "phone": "",
        "website": "",
        "hours": "",
        "source": "osm"
      },
      {
        "name": "Mooshik Shrine",
        "lat": 12.9941619,
        "lon": 74.834928,
        "type": "wayside_shrine",
        "religion": "hindu",
        "denomination": "",
        "phone": "",
        "website": "",
        "hours": "",
        "source": "osm"
      },
      {
        "name": "Dwara Temple",
        "lat": 12.9960863,
        "lon": 74.8208231,
        "type": "place_of_worship",
        "religion": "hindu",
        "denomination": "",
        "phone": "",
        "website": "",
        "hours": "",
        "source": "osm"
      },
      {
        "name": "Doomavathi Temple",
        "lat": 12.9933063,
        "lon": 74.8136249,
        "type": "place_of_worship",
        "religion": "hindu",
        "denomination": "",
        "phone": "",
        "website": "",
        "hours": "",
        "source": "osm"
      },
      {
        "name": "Nagabana Temple",
        "lat": 12.9989996,
        "lon": 74.8296609,
        "type": "place_of_worship",
        "religion": "hindu",
        "denomination": "",
        "phone": "",
        "website": "",
        "hours": "",
        "source": "osm"
      },
      {
        "name": "Bindass Boys katte",
        "lat": 12.9990529,
        "lon": 74.8311079,
        "type": "wayside_shrine",
        "religion": "",
        "denomination": "",
        "phone": "",
        "website": "",
        "hours": "",
        "source": "osm"
      },
      {
        "name": "Sri Rama Bhajana Mandira",
        "lat": 12.9226553,
        "lon": 74.8469305,
        "type": "place_of_worship",
        "religion": "hindu",
        "denomination": "",
        "phone": "",
        "website": "",
        "hours": "",
        "source": "osm"
      },
      {
        "name": "Shree Guru Raghavendra Matha",
        "lat": 12.9235122,
        "lon": 74.842167,
        "type": "place_of_worship",
        "religion": "hindu",
        "denomination": "",
        "phone": "",
        "website": "",
        "hours": "",
        "source": "osm"
      },
      {
        "name": "Gudde Guthu house",
        "lat": 12.8522989,
        "lon": 74.8633385,
        "type": "monument",
        "religion": "",
        "denomination": "",
        "phone": "",
        "website": "",
        "hours": "",
        "source": "osm"
      },
      {
        "name": "Karmbistana",
        "lat": 12.8536141,
        "lon": 74.8711254,
        "type": "place_of_worship",
        "religion": "",
        "denomination": "",
        "phone": "",
        "website": "",
        "hours": "",
        "source": "osm"
      },
      {
        "name": "Bhremer Sana",
        "lat": 12.8528309,
        "lon": 74.8715782,
        "type": "monument",
        "religion": "",
        "denomination": "",
        "phone": "",
        "website": "",
        "hours": "",
        "source": "osm"
      }
    ],
    "documented_structures": [
      {
        "name": "Kadri Manjunath Temple",
        "lat": 12.8979,
        "lon": 74.8505,
        "roof_style": "Sloped tiled (Mangalore tile — red)",
        "primary_material": "Laterite stone + wood",
        "architectural_style": "Tulu Nādu / Kerala hybrid",
        "special_feature": "Bronze Lokeshwara (8th c) — finest bronze in Karnataka",
        "community_trust_managed": true,
        "community": "Brahmin trust",
        "founded_approx": "10th century CE"
      },
      {
        "name": "Mangaladevi Temple",
        "lat": 12.857,
        "lon": 74.847,
        "roof_style": "Multi-tiered sloped tile gopura",
        "primary_material": "Laterite + timber",
        "architectural_style": "Tulu Nadu Shakti temple",
        "special_feature": "City's namesake temple, Navaratri chariot",
        "community_trust_managed": true,
        "community": "Mangaladevi Devasthana Trust",
        "founded_approx": "9th century CE"
      },
      {
        "name": "St Aloysius Chapel",
        "lat": 12.8714,
        "lon": 74.8381,
        "roof_style": "Roman barrel vault + dome",
        "primary_material": "Stone + plaster",
        "architectural_style": "Italian Baroque (Jesuit)",
        "special_feature": "Every wall and ceiling covered in Italian frescoes (1899)",
        "community_trust_managed": true,
        "community": "Society of Jesus (Jesuits)",
        "founded_approx": "1880 CE"
      },
      {
        "name": "Sultan Battery",
        "lat": 12.87,
        "lon": 74.826,
        "roof_style": "Flat military battlements",
        "primary_material": "Laterite block",
        "architectural_style": "Mughal military vernacular",
        "special_feature": "Tipu Sultan's 1784 riverside cannon post",
        "community_trust_managed": false,
        "community": "ASI protected",
        "founded_approx": "1784 CE"
      },
      {
        "name": "Milagres Church",
        "lat": 12.868,
        "lon": 74.837,
        "roof_style": "Gothic pointed arch + gabled roof",
        "primary_material": "Lime plaster + laterite",
        "architectural_style": "Portuguese Gothic",
        "special_feature": "Oldest church in Mangalore (1680), Our Lady of Miracles",
        "community_trust_managed": true,
        "community": "Diocese of Mangalore",
        "founded_approx": "1680 CE"
      }
    ],
    "regional_signature": {
      "dominant_roof_style": "Sloped mangalore tile roof (red fired clay)",
      "dominant_material": "Laterite (red volcanic stone, abundant in coastal Karnataka)",
      "secondary_material": "Teak and jackwood for pillars, doors, ceilings",
      "gopura_style": "Short, wide, tiled — unlike South Indian tall stone towers",
      "kerala_influence": true,
      "distinct_feature": "Wooden navaranga hall, bronze deity tradition (8th–12th c)"
    },
    "tile_heritage": {
      "mangalore_tile_origin": "Introduced by Basel Mission in 1865",
      "tile_factory_name": "Basel Mission Tile Works (now Mangalore Tiles)",
      "export_history": "Exported across Indian Ocean — found in Zanzibar, Aden, Sri Lanka",
      "current_manufacturers": [
        "Mangalore Tiles",
        "Peria Tiles",
        "Magnum Tiles"
      ],
      "tile_characteristic": "Machine-pressed red clay, interlocking design, low cost, excellent in monsoon"
    },
    "community_trust_system": {
      "description": "Tulu Nadu temples are managed by hereditary community trusts (Devasthana Trusts), not government",
      "types": [
        "Brahmin trust",
        "Community trust",
        "Private family trust",
        "Mutt administration"
      ],
      "notable_trusts": [
        "Dharmasthala Dharmadhikari (Heggade family)",
        "Kateel Devasthana Trust",
        "Mangaladevi Devasthana Trust"
      ]
    },
    "architecture_signature": {
      "roof_style": "sloped_tiled",
      "primary_material": "laterite_and_wood",
      "gopura_style": "short_wide_tiled",
      "kerala_influence": true,
      "community_trust_managed": true,
      "distinct_elements": [
        "Navaranga hall (pillared assembly hall)",
        "Mandapa with intricate wood carvings",
        "Garuda pillar at temple entrance",
        "Deepasthamba (lamp pillar)",
        "Naga-katte (serpent grove) in premises",
        "Theerthakund (sacred tank) — many temples"
      ]
    },
    "church_architecture_notes": {
      "portuguese_gothic": [
        "Milagres Church (1680)",
        "Rosario Cathedral"
      ],
      "jesuit_baroque": [
        "St. Aloysius Chapel (1880) — Italian frescoes"
      ],
      "modern_catholic": [
        "Sacred Heart Church",
        "Bejai Church"
      ],
      "distinct_elements": [
        "White lime-plastered facade",
        "Pitched red tile roof",
        "Bell tower integrated into facade",
        "Portuguese-era cross motifs"
      ]
    }
  },
  "cuisine_identity": {
    "domain": "cuisine_identity",
    "wiki_summaries": {
      "Konkani_cuisine": "Malvani cuisine is the standard cuisine of the South Konkan region of the Indian states of Maharashtra and Goa. Although Malvani cuisine is predominantly non-vegetarian, there are many vegetarian dishes. Although it is an independent cuisine, it overlaps Maharashtrian cuisine and Goan cuisine. Malvan is a town in the Sindhudurg district on the west coast of Maharashtra.",
      "Udupi_cuisine": "Udupi cuisine is a cuisine of South India. It forms an important part of Tuluva cuisine and takes its name from Udupi, a city on the southwest coast of India in the Tulunad region of the state of Karnataka.",
      "Neer_dosa": "Neer dose, literally meaning water dosa in Tulu is a crêpe prepared from rice batter. Neer dosa is a delicacy from Tulu Nadu in Karnataka, India and a part of Mangalorean cuisine.",
      "Kori_rotti": "Kori rotti is a spicy dish of the Tulu Udupi-Mangalorean cuisine of India.\nIt is an authentic dish of Tuluvas from Tulunadu. Kori rotti is a compulsory dish on Sundays and special occasions in Tulunadu homes. It is a combination of red chili and coconut milk-based chicken curry and crisp, dry wafers made from boiled rice. Kori means chicken in Tulu.",
      "Chicken_ghee_roast": "Chicken Ghee Roast is a popular Tuluva Mangalorean chicken recipe whose origins go back to the town, Kundapur, close to Udupi. Chicken ghee roast is fiery red in colour, and has a tangy and spicy flavor with ghee and roasted spices.",
      "Mangalorean_Catholic_cuisine": "Mangalorean Catholic cuisine is the cuisine of the Mangalorean Catholic community which is an important aspect of the culture of Mangalorean Catholics."
    },
    "wikidata_foods": [
      {
        "food": "http://www.wikidata.org/entity/Q28154305",
        "foodLabel": "Mangalorean Chicken Sukka"
      },
      {
        "food": "http://www.wikidata.org/entity/Q6432257",
        "foodLabel": "Kori Rotti"
      },
      {
        "food": "http://www.wikidata.org/entity/Q962957",
        "foodLabel": "tulumba"
      }
    ],
    "coconut_dependency_index": 0.88,
    "seafood_centrality_index": 0.82,
    "signature_dishes": [
      "Neer Dosa",
      "Kori Rotti",
      "Goli Baje",
      "Chicken Ghee Roast",
      "Kane Fish Fry",
      "Bangude Masala",
      "Fish Gassi",
      "Prawn Gassi",
      "Mangalore Bun",
      "Pathrode",
      "Pundi / Moode",
      "Sannas",
      "Sorpotel",
      "Beary Biryani",
      "Solkadhi",
      "Halva (coconut milk)"
    ],
    "dish_origin_zones": {
      "coastal Tulu belt (Mangalore–Udupi)": [
        "Neer Dosa",
        "Goli Baje",
        "Kane Fish Fry",
        "Bangude Masala",
        "Pundi"
      ],
      "Bunt / Tulu households": [
        "Kori Rotti",
        "Chicken Ghee Roast",
        "Fish Gassi"
      ],
      "GSB Konkani homes": [
        "Pathrado",
        "Dalitoy",
        "Khatkhate",
        "Ambat"
      ],
      "Mangalorean Catholic homes": [
        "Sorpotel",
        "Sannas",
        "Ros Omelette",
        "Pork Bafat"
      ],
      "Beary Muslim community": [
        "Beary Biryani",
        "Pathiri",
        "Halwa",
        "Kori Gassi (halal)"
      ],
      "Common to all communities": [
        "Idli-Sambar",
        "Coconut chutney",
        "Rice and curry"
      ]
    },
    "festival_food_mapping": {
      "Navaratri (Sep/Oct)": [
        "Kosambari (raw salad)",
        "Hesaru Bele Payasam",
        "No onion/garlic for Brahmin houses"
      ],
      "Kambala season (Nov–Mar)": [
        "Kori Rotti after races",
        "Local arrack/toddy in village zones"
      ],
      "Ganesh Chaturthi (Aug/Sep)": [
        "Modak",
        "Kadubu",
        "Kosambari — GSB elaborate spread"
      ],
      "Christmas (Dec)": [
        "Sorpotel",
        "Sannas",
        "Plum cake",
        "Bebinca (Goan borrowed)"
      ],
      "Eid (Islamic calendar)": [
        "Beary Biryani",
        "Haleem",
        "Sheer Khurma",
        "Pathiri"
      ],
      "Aati Month (Jul/Aug)": [
        "Pathrode (colocasia leaf)",
        "Halasina Kayi (breadfruit) dishes",
        "Seasonal coastal fish"
      ],
      "Ugadi (Mar/Apr)": [
        "Bevu-Bella (neem+jaggery)",
        "Holige/Obbattu",
        "Chitranna"
      ],
      "Deepavali (Oct/Nov)": [
        "Sweet Holige",
        "Ladoo",
        "Chakli",
        "Kobbari Mithai (coconut sweet)"
      ]
    },
    "key_ingredients": {
      "Kudampuli (Gambooge)": "Souring agent — unique to coastal Karnataka, different from tamarind",
      "Coconut": "Fresh, grated, milk — in almost every dish. Density: 0.88",
      "Byadgi Red Chilli": "High colour, medium heat — signature Mangalore spice",
      "Kane (Lady Fish)": "Signature Mangalore fish, bony but prized",
      "Bangude (Mackerel)": "Most common and affordable daily fish",
      "Kokum (Garcinia indica)": "For Solkadhi (digestive) and cooling drinks",
      "Jackfruit (Halasina Kayi)": "Seasonal, used in curries and chips",
      "Colocasia (Kesuve/Atti Kayi)": "Pathrode, curries, coastal staple",
      "Cashew": "Mangalore is a major cashew processing hub — freshest in India",
      "Tulu Curry Leaf": "Stronger aroma variety — essential in tadka"
    },
    "coastal_vs_interior": {
      "coastal_mangalore": "Rice-based, heavy seafood, coconut milk curries, fresh fish daily",
      "inland_50km": "Sorghum/jowar rotti replaces rice, less fish, more meat and dal",
      "key_boundary": "The Western Ghats — cuisine changes dramatically at the Ghats"
    },
    "aati_month_foods": {
      "month": "Aati (mid-July to mid-August, Tulu lunar month)",
      "significance": "Sea is rough, no fresh fish — special foods tied to monsoon season",
      "traditional_dishes": [
        {
          "name": "Pathrode",
          "notes": "Colocasia leaves — available only in monsoon"
        },
        {
          "name": "Halasina Kayi Gojju",
          "notes": "Breadfruit curry — monsoon crop"
        },
        {
          "name": "Kadubu",
          "notes": "Steamed rice dumplings — festival food"
        },
        {
          "name": "Unda",
          "notes": "Sweet sesame rice balls — energy food"
        },
        {
          "name": "Kori Ajadina (Chicken Ajadina)",
          "notes": "Alternative to fish during sea ban"
        },
        {
          "name": "Tender Jackfruit (Gujje) curry",
          "notes": "Peak jackfruit season — eaten as fish substitute"
        }
      ],
      "rituals": "Aati Kalenja — ritual singing, family gatherings, special deity worship"
    },
    "coconut_density_zones": {
      "highest_density": "Coastal belt — within 10km of sea, coconut in every dish",
      "medium_density": "10–40km inland — coconut milk used, but less fresh grating",
      "low_density": "40km+ inland / Ghats — coconut oil used, fresh grating rare",
      "index_map": {
        "coastal_0_10km": 0.95,
        "inland_10_40km": 0.65,
        "ghats_40km_plus": 0.3
      }
    },
    "street_food_geography": [
      {
        "area": "Hampankatta",
        "foods": [
          "Goli Baje",
          "Pani Puri",
          "Bhel",
          "Churmuri"
        ],
        "peak": "Evening 5–9pm"
      },
      {
        "area": "Hoige Bazaar",
        "foods": [
          "Fresh fish fry",
          "Prawn fry",
          "Crab"
        ],
        "peak": "Morning 6–9am"
      },
      {
        "area": "Balmatta Road",
        "foods": [
          "Mangalore Bun",
          "Idli",
          "Dosa",
          "Neer Dosa"
        ],
        "peak": "7–10am"
      },
      {
        "area": "Falnir Road",
        "foods": [
          "Bakery bread",
          "Khaari",
          "Cutlets"
        ],
        "peak": "7–9am"
      },
      {
        "area": "City centre night stalls",
        "foods": [
          "Shawarma",
          "Kebab",
          "Parotta"
        ],
        "peak": "9pm–1am"
      }
    ]
  },
  "linguistic_map": {
    "domain": "linguistic_map",
    "wiki_summaries": {
      "Tulu_language": "The Tulu language is a Dravidian language whose speakers are concentrated in Dakshina Kannada and in the southern part of Udupi of Karnataka in south-western India and also in the northern parts of the Kasaragod district of Kerala. The native speakers of Tulu are referred to as Tuluva or Tulu people and the geographical area is unofficially called Tulu Nadu.",
      "Konkani_language": "Konkani, formerly Concani or Concanese, is an Indo-Aryan language spoken by the Konkani people, primarily in the Konkan region, along the western coast of India. It is one of the 22 scheduled languages mentioned in the Indian Constitution, and the official language of the Indian state of Goa. It is also spoken in Karnataka, Maharashtra, Kerala, Gujarat as well as Daman, Diu & Silvassa.",
      "Tulu_Nadu": "Tulu Nadu, or Tulunad, is a region and a proposed state on the southwestern coast of India. The region is predominantly inhabited by the Tulu people, also known as Tuluva, who speak Tulu, a Dravidian language. The former district encompassed the territories of the contemporary Dakshina Kannada (Kudla) and Udupi (Odipu) of Karnataka State, and Kasaragod district (Kasrod) of Kerala state. These areas collectively form the cultural region of the Tuluver."
    },
    "dominant_languages": [
      {
        "language": "Tulu",
        "script": "Tulu script (rare) / Kannada script",
        "speakers_pct": 35,
        "zones": [
          "Attavar",
          "Kankanady",
          "Kadri",
          "Derebail",
          "Surathkal"
        ],
        "notes": "Indigenous language of Tulu Nadu. One of India's classical language candidates."
      },
      {
        "language": "Kannada",
        "script": "Kannada",
        "speakers_pct": 28,
        "zones": [
          "City center",
          "Administrative areas",
          "Mixed urban zones"
        ],
        "notes": "Official state language. Used in government, schools, business."
      },
      {
        "language": "Konkani (GSB dialect)",
        "script": "Kannada / Devanagari",
        "speakers_pct": 15,
        "zones": [
          "Falnir",
          "Bejai",
          "Bunts Hostel area"
        ],
        "notes": "Goud Saraswat Brahmin dialect. Different from Goan Konkani."
      },
      {
        "language": "Beary Bashe",
        "script": "Arabic-influenced / informal",
        "speakers_pct": 12,
        "zones": [
          "Ullal",
          "Bunder",
          "Pumpwell"
        ],
        "notes": "Arabic-Malayalam-Tulu creole of Beary Muslim community. UNESCO: vulnerable."
      },
      {
        "language": "Mangalorean Konkani (Catholic)",
        "script": "Roman / Kannada",
        "speakers_pct": 6,
        "zones": [
          "Falnir",
          "Bondel",
          "Bolar",
          "Car Street"
        ],
        "notes": "Distinct dialect of Mangalorean Catholics. Portuguese loanwords."
      },
      {
        "language": "Malayalam",
        "script": "Malayalam",
        "speakers_pct": 4,
        "zones": [
          "Southern Mangalore near Kerala border"
        ],
        "notes": "Spoken near Ullal, Talapady — Kerala proximity."
      }
    ],
    "minority_clusters": [
      {
        "language": "Urdu",
        "community": "North Indian Muslim traders",
        "area": "Old port area"
      },
      {
        "language": "Marathi",
        "community": "Migrant workers",
        "area": "Industrial zones"
      },
      {
        "language": "Tamil",
        "community": "Migrant workers, some long-settled",
        "area": "Various"
      },
      {
        "language": "Hindi",
        "community": "North Indian business community",
        "area": "Hampankatta"
      }
    ],
    "cultural_overlap_zones": [
      {
        "zone": "Bunder / Old Port area",
        "languages": [
          "Beary Bashe",
          "Tulu",
          "Urdu"
        ],
        "character": "Muslim fishing + trading quarter"
      },
      {
        "zone": "Car Street area",
        "languages": [
          "Tulu",
          "Konkani",
          "Kannada"
        ],
        "character": "Old Brahmin agrahara, multi-community"
      },
      {
        "zone": "Hampankatta",
        "languages": [
          "Kannada",
          "Tulu",
          "Hindi"
        ],
        "character": "Commercial hub, all communities"
      },
      {
        "zone": "Ullal",
        "languages": [
          "Beary Bashe",
          "Tulu",
          "Malayalam"
        ],
        "character": "Southernmost zone, Kerala influence"
      }
    ],
    "signage_languages": [
      "Kannada (mandatory)",
      "English",
      "Tulu (community use)",
      "Urdu (Beary areas)"
    ],
    "lingua_franca": "Kannada is the neutral communication language across all communities. Hindi used in commercial zones. English in educational institutions.",
    "code_switching_patterns": [
      "Tulu speakers switch to Kannada with non-Tuluvas",
      "Beary Bashe speakers switch to Kannada/Urdu in trade",
      "Catholic Konkanis switch between Konkani, Kannada, English within one conversation",
      "Students across colleges use a Kannada-English mix colloquially"
    ],
    "endangered_languages": [
      {
        "language": "Beary Bashe",
        "status": "UNESCO Vulnerable",
        "speakers_est": 500000,
        "risk": "Younger generation shifting to Kannada/Urdu"
      },
      {
        "language": "Paddana (Oral)",
        "status": "Critically endangered",
        "speakers_est": "<500 active practitioners",
        "risk": "Oral tradition, no formal preservation"
      },
      {
        "language": "Mogaveera dialect (Tulu variant)",
        "status": "Vulnerable",
        "risk": "Fishing community dialect merging with standard Tulu"
      }
    ]
  },
  "religious_coexistence": {
    "domain": "religious_coexistence",
    "osm_worship_by_religion": {
      "christian": 32,
      "muslim": 48,
      "hindu": 87,
      "unknown": 15
    },
    "osm_worship_full": {
      "christian": [
        {
          "name": "St. Paul's Church",
          "lat": 12.8616672,
          "lon": 74.8373704,
          "type": "place_of_worship",
          "religion": "christian",
          "denomination": "csi",
          "phone": "",
          "website": "",
          "hours": "",
          "source": "osm"
        },
        {
          "name": "Immaculate Conception Church",
          "lat": 12.8899464,
          "lon": 74.8340369,
          "type": "place_of_worship",
          "religion": "christian",
          "denomination": "",
          "phone": "",
          "website": "",
          "hours": "",
          "source": "osm"
        },
        {
          "name": "St. Dominic Church",
          "lat": 12.8998373,
          "lon": 74.8317482,
          "type": "place_of_worship",
          "religion": "christian",
          "denomination": "",
          "phone": "",
          "website": "",
          "hours": "",
          "source": "osm"
        },
        {
          "name": "Father Muller Chapel",
          "lat": 12.8670777,
          "lon": 74.8615987,
          "type": "place_of_worship",
          "religion": "christian",
          "denomination": "",
          "phone": "",
          "website": "",
          "hours": "",
          "source": "osm"
        },
        {
          "name": "The Pentecostal Mission ( Church )",
          "lat": 12.85361,
          "lon": 74.853775,
          "type": "place_of_worship",
          "religion": "christian",
          "denomination": "",
          "phone": "",
          "website": "",
          "hours": "",
          "source": "osm"
        },
        {
          "name": "CSI Kanti Church",
          "lat": 12.8492517,
          "lon": 74.846817,
          "type": "place_of_worship",
          "religion": "christian",
          "denomination": "",
          "phone": "",
          "website": "",
          "hours": "",
          "source": "osm"
        },
        {
          "name": "Fatima Church",
          "lat": 12.8864188,
          "lon": 74.8172488,
          "type": "place_of_worship",
          "religion": "christian",
          "denomination": "",
          "phone": "",
          "website": "",
          "hours": "",
          "source": "osm"
        },
        {
          "name": "Holy Spirit Church",
          "lat": 13.0179014,
          "lon": 74.7902756,
          "type": "place_of_worship",
          "religion": "christian",
          "denomination": "catholic",
          "phone": "",
          "website": "",
          "hours": "",
          "source": "osm"
        },
        {
          "name": "St. Aloysius Chapel",
          "lat": 12.8737995,
          "lon": 74.8453615,
          "type": "place_of_worship",
          "religion": "christian",
          "denomination": "",
          "phone": "",
          "website": "",
          "hours": "",
          "source": "osm"
        },
        {
          "name": "St. Gregorius Orthodox Syrian Church",
          "lat": 12.9117115,
          "lon": 74.8341891,
          "type": "place_of_worship",
          "religion": "christian",
          "denomination": "",
          "phone": "",
          "website": "",
          "hours": "",
          "source": "osm"
        },
        {
          "name": "Infant Jesus",
          "lat": 12.8823395,
          "lon": 74.8690322,
          "type": "place_of_worship",
          "religion": "christian",
          "denomination": "catholic",
          "phone": "",
          "website": "",
          "hours": "",
          "source": "osm"
        },
        {
          "name": "Guardian Angel Church, Angelore Nagori",
          "lat": 12.8716004,
          "lon": 74.8738538,
          "type": "place_of_worship",
          "religion": "christian",
          "denomination": "roman_catholic",
          "phone": "",
          "website": "",
          "hours": "",
          "source": "osm"
        },
        {
          "name": "Holy Hill",
          "lat": 12.8751998,
          "lon": 74.869238,
          "type": "place_of_worship",
          "religion": "christian",
          "denomination": "catholic",
          "phone": "",
          "website": "",
          "hours": "",
          "source": "osm"
        },
        {
          "name": "Infant Mary Church",
          "lat": 12.8817423,
          "lon": 74.8674677,
          "type": "place_of_worship",
          "religion": "christian",
          "denomination": "roman_catholic",
          "phone": "",
          "website": "",
          "hours": "",
          "source": "osm"
        },
        {
          "name": "St Joseph Worker Church",
          "lat": 12.9126797,
          "lon": 74.8993465,
          "type": "place_of_worship",
          "religion": "christian",
          "denomination": "roman_catholic",
          "phone": "",
          "website": "",
          "hours": "",
          "source": "osm"
        },
        {
          "name": "St Joseph The Worker Church Neermarga",
          "lat": 12.8797976,
          "lon": 74.9258447,
          "type": "place_of_worship",
          "religion": "christian",
          "denomination": "",
          "phone": "",
          "website": "",
          "hours": "",
          "source": "osm"
        },
        {
          "name": "Milagres Church",
          "lat": 12.8673963,
          "lon": 74.8443111,
          "type": "place_of_worship",
          "religion": "christian",
          "denomination": "roman_catholic",
          "phone": "",
          "website": "",
          "hours": "",
          "source": "osm"
        },
        {
          "name": "CSI Church",
          "lat": 12.9068532,
          "lon": 74.8294954,
          "type": "place_of_worship",
          "religion": "christian",
          "denomination": "",
          "phone": "",
          "website": "",
          "hours": "",
          "source": "osm"
        },
        {
          "name": "Rosario Cathedral",
          "lat": 12.8559259,
          "lon": 74.8364774,
          "type": "place_of_worship",
          "religion": "christian",
          "denomination": "",
          "phone": "",
          "website": "",
          "hours": "",
          "source": "osm"
        },
        {
          "name": "Sacred Heart Church",
          "lat": 12.9862914,
          "lon": 74.804794,
          "type": "place_of_worship",
          "religion": "christian",
          "denomination": "",
          "phone": "",
          "website": "",
          "hours": "",
          "source": "osm"
        },
        {
          "name": "Holy Cross Church, Hosabettu",
          "lat": 13.0275297,
          "lon": 75.0090638,
          "type": "place_of_worship",
          "religion": "christian",
          "denomination": "catholic",
          "phone": "",
          "website": "",
          "hours": "",
          "source": "osm"
        },
        {
          "name": "Church of St. Lawrence",
          "lat": 12.917129,
          "lon": 74.8690667,
          "type": "place_of_worship",
          "religion": "christian",
          "denomination": "roman_catholic",
          "phone": "",
          "website": "",
          "hours": "",
          "source": "osm"
        },
        {
          "name": "Bokkapatna Church",
          "lat": 12.8789627,
          "lon": 74.8287407,
          "type": "place_of_worship",
          "religion": "christian",
          "denomination": "",
          "phone": "",
          "website": "",
          "hours": "",
          "source": "osm"
        },
        {
          "name": "Bethany Provincialate, Vamanjoor",
          "lat": 12.9096924,
          "lon": 74.8973699,
          "type": "place_of_worship",
          "religion": "christian",
          "denomination": "",
          "phone": "",
          "website": "",
          "hours": "",
          "source": "osm"
        },
        {
          "name": "ST. Charles Borromeo Convent",
          "lat": 12.883697,
          "lon": 74.9464341,
          "type": "place_of_worship",
          "religion": "christian",
          "denomination": "",
          "phone": "",
          "website": "",
          "hours": "",
          "source": "osm"
        },
        {
          "name": "Holy Family Church Ground",
          "lat": 12.8872184,
          "lon": 74.9501226,
          "type": "place_of_worship",
          "religion": "christian",
          "denomination": "",
          "phone": "",
          "website": "",
          "hours": "",
          "source": "osm"
        },
        {
          "name": "Holy Family Church",
          "lat": 12.8873263,
          "lon": 74.9505517,
          "type": "place_of_worship",
          "religion": "christian",
          "denomination": "catholic",
          "phone": "",
          "website": "",
          "hours": "",
          "source": "osm"
        },
        {
          "name": "St. Sebastian Church",
          "lat": 12.9978639,
          "lon": 74.8209614,
          "type": "place_of_worship",
          "religion": "christian",
          "denomination": "",
          "phone": "",
          "website": "",
          "hours": "",
          "source": "osm"
        },
        {
          "name": "Holy Cross Church",
          "lat": 12.8838446,
          "lon": 74.8833443,
          "type": "place_of_worship",
          "religion": "christian",
          "denomination": "roman_catholic",
          "phone": "+91 (0)8242 231 372",
          "website": "https://cordelchurch.com/",
          "hours": "",
          "source": "osm"
        },
        {
          "name": "Valencia church",
          "lat": 12.863795,
          "lon": 74.860663,
          "type": "place_of_worship",
          "religion": "christian",
          "denomination": "roman_catholic",
          "phone": "",
          "website": "",
          "hours": "",
          "source": "osm"
        },
        {
          "name": "St. Sebastian Church",
          "lat": 12.8764639,
          "lon": 74.8577123,
          "type": "place_of_worship",
          "religion": "christian",
          "denomination": "roman_catholic",
          "phone": "",
          "website": "",
          "hours": "",
          "source": "osm"
        },
        {
          "name": "Maryhill Convent",
          "lat": 12.9075487,
          "lon": 74.8631699,
          "type": "place_of_worship",
          "religion": "christian",
          "denomination": "roman_catholic",
          "phone": "",
          "website": "",
          "hours": "",
          "source": "osm"
        }
      ],
      "muslim": [
        {
          "name": "Idgah Mosque",
          "lat": 12.8718474,
          "lon": 74.8451353,
          "type": "place_of_worship",
          "religion": "muslim",
          "denomination": "",
          "phone": "",
          "website": "",
          "hours": "",
          "source": "osm"
        },
        {
          "name": "Bolar Mosque",
          "lat": 12.8476249,
          "lon": 74.8403287,
          "type": "place_of_worship",
          "religion": "muslim",
          "denomination": "sunni",
          "phone": "",
          "website": "",
          "hours": "",
          "source": "osm"
        },
        {
          "name": "MJ Masjid",
          "lat": 12.9928646,
          "lon": 74.8383179,
          "type": "place_of_worship",
          "religion": "muslim",
          "denomination": "",
          "phone": "",
          "website": "",
          "hours": "",
          "source": "osm"
        },
        {
          "name": "Kana",
          "lat": 12.9806499,
          "lon": 74.8169556,
          "type": "place_of_worship",
          "religion": "muslim",
          "denomination": "",
          "phone": "",
          "website": "",
          "hours": "",
          "source": "osm"
        },
        {
          "name": "New Juma Masjid, Pudiyo Palli",
          "lat": 12.9623947,
          "lon": 74.8447647,
          "type": "place_of_worship",
          "religion": "muslim",
          "denomination": "",
          "phone": "",
          "website": "",
          "hours": "",
          "source": "osm"
        },
        {
          "name": "Masjid",
          "lat": 12.9615803,
          "lon": 74.821228,
          "type": "place_of_worship",
          "religion": "muslim",
          "denomination": "",
          "phone": "",
          "website": "",
          "hours": "",
          "source": "osm"
        },
        {
          "name": "Valiyulla Darga Sharif Moschee",
          "lat": 13.0347958,
          "lon": 74.7843781,
          "type": "place_of_worship",
          "religion": "muslim",
          "denomination": "",
          "phone": "",
          "website": "",
          "hours": "",
          "source": "osm"
        },
        {
          "name": "Asthal Jamia masjid",
          "lat": 12.9982455,
          "lon": 74.8151443,
          "type": "place_of_worship",
          "religion": "muslim",
          "denomination": "sunni",
          "phone": "",
          "website": "",
          "hours": "",
          "source": "osm"
        },
        {
          "name": "Thwaiba Masjid",
          "lat": 12.9984592,
          "lon": 74.8143203,
          "type": "place_of_worship",
          "religion": "muslim",
          "denomination": "",
          "phone": "",
          "website": "",
          "hours": "",
          "source": "osm"
        },
        {
          "name": "Al Badriya Jumma Masjid",
          "lat": 12.9967206,
          "lon": 74.8180307,
          "type": "place_of_worship",
          "religion": "muslim",
          "denomination": "",
          "phone": "",
          "website": "",
          "hours": "",
          "source": "osm"
        },
        {
          "name": "Mohiyuddin Juma Masjid",
          "lat": 12.9897138,
          "lon": 74.7972004,
          "type": "place_of_worship",
          "religion": "muslim",
          "denomination": "",
          "phone": "",
          "website": "",
          "hours": "",
          "source": "osm"
        },
        {
          "name": "Hayathul Islam Masjid Gandhinagar",
          "lat": 12.9830402,
          "lon": 74.9564237,
          "type": "place_of_worship",
          "religion": "muslim",
          "denomination": "",
          "phone": "",
          "website": "",
          "hours": "",
          "source": "osm"
        },
        {
          "name": "Masjidurrahman Juma Masjid Souharda Nagar Kolambe Bajpe",
          "lat": 12.9735212,
          "lon": 74.8963023,
          "type": "place_of_worship",
          "religion": "muslim",
          "denomination": "",
          "phone": "",
          "website": "",
          "hours": "",
          "source": "osm"
        },
        {
          "name": "Masjid Ayesha Gurukambla",
          "lat": 12.9607842,
          "lon": 74.9430704,
          "type": "place_of_worship",
          "religion": "muslim",
          "denomination": "",
          "phone": "",
          "website": "",
          "hours": "",
          "source": "osm"
        },
        {
          "name": "Muhiyudeen Jumma Masjid Arala",
          "lat": 12.9524532,
          "lon": 75.022163,
          "type": "place_of_worship",
          "religion": "muslim",
          "denomination": "",
          "phone": "",
          "website": "",
          "hours": "",
          "source": "osm"
        },
        {
          "name": "Jumma Masjid",
          "lat": 12.9432074,
          "lon": 74.9320458,
          "type": "place_of_worship",
          "religion": "muslim",
          "denomination": "",
          "phone": "",
          "website": "",
          "hours": "",
          "source": "osm"
        },
        {
          "name": "Baba Fakrudding Juma Masjid Polali & Baba Fakruddin Kadeem Maqbara",
          "lat": 12.9315837,
          "lon": 74.9532517,
          "type": "place_of_worship",
          "religion": "muslim",
          "denomination": "",
          "phone": "",
          "website": "",
          "hours": "",
          "source": "osm"
        },
        {
          "name": "Kavoor Jumma Masjid",
          "lat": 12.9265807,
          "lon": 74.8585465,
          "type": "place_of_worship",
          "religion": "muslim",
          "denomination": "",
          "phone": "",
          "website": "",
          "hours": "",
          "source": "osm"
        },
        {
          "name": "Hayatul Islam Badriya Masjid Kattapuni",
          "lat": 12.9129665,
          "lon": 74.9001633,
          "type": "place_of_worship",
          "religion": "muslim",
          "denomination": "",
          "phone": "",
          "website": "",
          "hours": "",
          "source": "osm"
        },
        {
          "name": "Madeena Jumma Masjid Kalai",
          "lat": 12.9110491,
          "lon": 74.9672273,
          "type": "place_of_worship",
          "religion": "muslim",
          "denomination": "",
          "phone": "",
          "website": "",
          "hours": "",
          "source": "osm"
        },
        {
          "name": "Masjid Al Amin",
          "lat": 12.9044595,
          "lon": 74.8342242,
          "type": "place_of_worship",
          "religion": "muslim",
          "denomination": "",
          "phone": "",
          "website": "",
          "hours": "",
          "source": "osm"
        },
        {
          "name": "Muhyuddin Juma Masjid",
          "lat": 12.873549,
          "lon": 74.8306653,
          "type": "place_of_worship",
          "religion": "muslim",
          "denomination": "",
          "phone": "",
          "website": "",
          "hours": "",
          "source": "osm"
        },
        {
          "name": "Rahman Masjid Padil Alape",
          "lat": 12.8713284,
          "lon": 74.8867979,
          "type": "place_of_worship",
          "religion": "muslim",
          "denomination": "",
          "phone": "",
          "website": "",
          "hours": "",
          "source": "osm"
        },
        {
          "name": "Badriya Juma Masjid Belma Dota",
          "lat": 12.823695,
          "lon": 74.895028,
          "type": "place_of_worship",
          "religion": "muslim",
          "denomination": "",
          "phone": "",
          "website": "",
          "hours": "",
          "source": "osm"
        },
        {
          "name": "Masjid Al Hidaya Juma",
          "lat": 12.820929,
          "lon": 74.8589492,
          "type": "place_of_worship",
          "religion": "muslim",
          "denomination": "",
          "phone": "",
          "website": "",
          "hours": "",
          "source": "osm"
        },
        {
          "name": "Tjm Masjid Madyanadka",
          "lat": 12.8192616,
          "lon": 74.9629745,
          "type": "place_of_worship",
          "religion": "muslim",
          "denomination": "",
          "phone": "",
          "website": "",
          "hours": "",
          "source": "osm"
        },
        {
          "name": "Badriya Juma Masjid",
          "lat": 12.8154701,
          "lon": 74.8711878,
          "type": "place_of_worship",
          "religion": "muslim",
          "denomination": "",
          "phone": "",
          "website": "",
          "hours": "",
          "source": "osm"
        },
        {
          "name": "Juma Masjid Parappu",
          "lat": 12.8007339,
          "lon": 74.9908807,
          "type": "place_of_worship",
          "religion": "muslim",
          "denomination": "",
          "phone": "",
          "website": "",
          "hours": "",
          "source": "osm"
        },
        {
          "name": "Soorinje Mjm Masjid",
          "lat": 13.0243211,
          "lon": 74.8392103,
          "type": "place_of_worship",
          "religion": "muslim",
          "denomination": "",
          "phone": "",
          "website": "",
          "hours": "",
          "source": "osm"
        },
        {
          "name": "Jamiya Masjid Permude",
          "lat": 13.0020573,
          "lon": 74.8843238,
          "type": "place_of_worship",
          "religion": "muslim",
          "denomination": "",
          "phone": "",
          "website": "",
          "hours": "",
          "source": "osm"
        },
        {
          "name": "Minara Masjid",
          "lat": 12.9953709,
          "lon": 74.885277,
          "type": "place_of_worship",
          "religion": "muslim",
          "denomination": "",
          "phone": "",
          "website": "",
          "hours": "",
          "source": "osm"
        },
        {
          "name": "Campus Mosque",
          "lat": 12.8086719,
          "lon": 74.9336798,
          "type": "place_of_worship",
          "religion": "muslim",
          "denomination": "",
          "phone": "",
          "website": "",
          "hours": "",
          "source": "osm"
        },
        {
          "name": "Masjid",
          "lat": 12.8616241,
          "lon": 74.8215378,
          "type": "place_of_worship",
          "religion": "muslim",
          "denomination": "",
          "phone": "",
          "website": "",
          "hours": "",
          "source": "osm"
        },
        {
          "name": "Jamma Masjid",
          "lat": 12.8777316,
          "lon": 74.8293265,
          "type": "place_of_worship",
          "religion": "muslim",
          "denomination": "",
          "phone": "",
          "website": "",
          "hours": "",
          "source": "osm"
        },
        {
          "name": "Yenepoya Masjid",
          "lat": 12.807761,
          "lon": 74.8785037,
          "type": "place_of_worship",
          "religion": "muslim",
          "denomination": "",
          "phone": "",
          "website": "",
          "hours": "",
          "source": "osm"
        },
        {
          "name": "Zulekha Girls Masjid",
          "lat": 12.8095349,
          "lon": 74.8787568,
          "type": "place_of_worship",
          "religion": "muslim",
          "denomination": "",
          "phone": "",
          "website": "",
          "hours": "",
          "source": "osm"
        },
        {
          "name": "Badria Jama Masjid",
          "lat": 12.8696291,
          "lon": 74.9689871,
          "type": "place_of_worship",
          "religion": "muslim",
          "denomination": "",
          "phone": "",
          "website": "",
          "hours": "",
          "source": "osm"
        },
        {
          "name": "Masjidul Qiler Perimar",
          "lat": 12.8732728,
          "lon": 74.9691624,
          "type": "place_of_worship",
          "religion": "muslim",
          "denomination": "",
          "phone": "",
          "website": "",
          "hours": "",
          "source": "osm"
        },
        {
          "name": "Eidgah Jumma Masjid",
          "lat": 12.9921127,
          "lon": 74.8136036,
          "type": "place_of_worship",
          "religion": "muslim",
          "denomination": "",
          "phone": "",
          "website": "",
          "hours": "",
          "source": "osm"
        },
        {
          "name": "Panambur Sunni Masjid",
          "lat": 12.9959163,
          "lon": 74.8071355,
          "type": "place_of_worship",
          "religion": "muslim",
          "denomination": "",
          "phone": "",
          "website": "",
          "hours": "",
          "source": "osm"
        },
        {
          "name": "Muhiyuddin Jumma Masjid",
          "lat": 13.0026006,
          "lon": 74.8309089,
          "type": "place_of_worship",
          "religion": "muslim",
          "denomination": "",
          "phone": "",
          "website": "",
          "hours": "",
          "source": "osm"
        },
        {
          "name": "Salafi Masjid",
          "lat": 12.997102,
          "lon": 74.8128995,
          "type": "place_of_worship",
          "religion": "muslim",
          "denomination": "",
          "phone": "",
          "website": "",
          "hours": "",
          "source": "osm"
        },
        {
          "name": "Idgah Mosque",
          "lat": 12.871855,
          "lon": 74.8451182,
          "type": "place_of_worship",
          "religion": "muslim",
          "denomination": "",
          "phone": "",
          "website": "",
          "hours": "",
          "source": "osm"
        },
        {
          "name": "Nadupalli Jumma Masjid",
          "lat": 12.8761746,
          "lon": 74.8296853,
          "type": "place_of_worship",
          "religion": "muslim",
          "denomination": "",
          "phone": "",
          "website": "",
          "hours": "",
          "source": "osm"
        },
        {
          "name": "Kandath Palli Jumma Masjid",
          "lat": 12.8704158,
          "lon": 74.8319132,
          "type": "place_of_worship",
          "religion": "muslim",
          "denomination": "",
          "phone": "",
          "website": "",
          "hours": "",
          "source": "osm"
        },
        {
          "name": "badriya juma masjid",
          "lat": 12.8661379,
          "lon": 74.9075094,
          "type": "place_of_worship",
          "religion": "muslim",
          "denomination": "sunni",
          "phone": "",
          "website": "",
          "hours": "",
          "source": "osm"
        },
        {
          "name": "badriya hayatul islam madrasa",
          "lat": 12.8698154,
          "lon": 74.9065907,
          "type": "place_of_worship",
          "religion": "muslim",
          "denomination": "",
          "phone": "",
          "website": "",
          "hours": "",
          "source": "osm"
        },
        {
          "name": "Salafi masjid",
          "lat": 12.8686426,
          "lon": 74.9071223,
          "type": "place_of_worship",
          "religion": "muslim",
          "denomination": "",
          "phone": "",
          "website": "",
          "hours": "",
          "source": "osm"
        }
      ],
      "hindu": [
        {
          "name": "Shri Mahalingeshwara Temple",
          "lat": 13.0355937,
          "lon": 74.7954467,
          "type": "place_of_worship",
          "religion": "hindu",
          "denomination": "",
          "phone": "",
          "website": "",
          "hours": "",
          "source": "osm"
        },
        {
          "name": "Kalikamba Temple",
          "lat": 12.8701364,
          "lon": 74.8348177,
          "type": "place_of_worship",
          "religion": "hindu",
          "denomination": "",
          "phone": "",
          "website": "",
          "hours": "",
          "source": "osm"
        },
        {
          "name": "Shri Mahaganapathi Temple, Urwa/Kottara",
          "lat": 12.902033,
          "lon": 74.8368503,
          "type": "place_of_worship",
          "religion": "hindu",
          "denomination": "",
          "phone": "",
          "website": "",
          "hours": "",
          "source": "osm"
        },
        {
          "name": "Kuruamba Temple, Kodikal",
          "lat": 12.9094283,
          "lon": 74.8317994,
          "type": "place_of_worship",
          "religion": "hindu",
          "denomination": "",
          "phone": "",
          "website": "",
          "hours": "",
          "source": "osm"
        },
        {
          "name": "Koteda Babbu Temple",
          "lat": 12.8805723,
          "lon": 74.854641,
          "type": "place_of_worship",
          "religion": "hindu",
          "denomination": "",
          "phone": "",
          "website": "",
          "hours": "",
          "source": "osm"
        },
        {
          "name": "Shri Jnanashakthi Subrahmanyaswami Temple, Nagavruja Kshetra Pavanje",
          "lat": 13.0363325,
          "lon": 74.794573,
          "type": "place_of_worship",
          "religion": "hindu",
          "denomination": "hindu",
          "phone": "+918242283393",
          "website": "https://jnanashakthinagavruja.in/",
          "hours": "05:00-20:00",
          "source": "osm"
        },
        {
          "name": "Sri Cheerumbha Bhagavathi Temple",
          "lat": 12.8201341,
          "lon": 74.8431692,
          "type": "place_of_worship",
          "religion": "hindu",
          "denomination": "",
          "phone": "",
          "website": "",
          "hours": "",
          "source": "osm"
        },
        {
          "name": "Shree Sathyadharma Devi Temple",
          "lat": 13.0204602,
          "lon": 74.7911264,
          "type": "place_of_worship",
          "religion": "hindu",
          "denomination": "hindu",
          "phone": "",
          "website": "",
          "hours": "",
          "source": "osm"
        },
        {
          "name": "Pandeshwar Temple",
          "lat": 12.85684,
          "lon": 74.8379984,
          "type": "place_of_worship",
          "religion": "hindu",
          "denomination": "",
          "phone": "",
          "website": "",
          "hours": "",
          "source": "osm"
        },
        {
          "name": "Umamaheshwari temple",
          "lat": 12.8589158,
          "lon": 74.8486098,
          "type": "place_of_worship",
          "religion": "hindu",
          "denomination": "",
          "phone": "",
          "website": "",
          "hours": "",
          "source": "osm"
        },
        {
          "name": "Shri Anjaneya Temple, Kudroli",
          "lat": 12.8761961,
          "lon": 74.8318594,
          "type": "place_of_worship",
          "religion": "hindu",
          "denomination": "",
          "phone": "",
          "website": "",
          "hours": "",
          "source": "osm"
        },
        {
          "name": "Shri Rajarajeshwari Temple",
          "lat": 12.9340913,
          "lon": 74.9553145,
          "type": "place_of_worship",
          "religion": "hindu",
          "denomination": "",
          "phone": "",
          "website": "",
          "hours": "",
          "source": "osm"
        },
        {
          "name": "Nagakannika Durga Parameshwari Temple",
          "lat": 12.9046269,
          "lon": 74.8522939,
          "type": "place_of_worship",
          "religion": "hindu",
          "denomination": "",
          "phone": "",
          "website": "",
          "hours": "",
          "source": "osm"
        },
        {
          "name": "Chamundeshwari Temple",
          "lat": 12.8569946,
          "lon": 74.8678741,
          "type": "place_of_worship",
          "religion": "hindu",
          "denomination": "",
          "phone": "",
          "website": "",
          "hours": "",
          "source": "osm"
        },
        {
          "name": "Benkinatheshwara Temple",
          "lat": 12.9807491,
          "lon": 74.8501587,
          "type": "place_of_worship",
          "religion": "hindu",
          "denomination": "",
          "phone": "",
          "website": "",
          "hours": "",
          "source": "osm"
        },